{
  "_embedded" : {
    "breweries" : [ {
      "postalAddress" : {
        "city" : "Sydney",
        "street" : "Caste Hill Rd",
        "identifier_address" : "6fe507d8-a09b-40e7-a33b-df285935c651"
      },
      "name" : "Brewery S",
      "geometry" : {
        "type" : "Polygon",
        "coordinates" : [ [ [ 5.606214102, 51.517908855 ], [ 5.608499344, 51.517908855 ], [ 5.608499344, 51.516773882 ], [ 5.606214102, 51.516773882 ], [ 5.606214102, 51.517908855 ] ] ]
      },
      "identifier_brewery" : "28649f76-ddcf-417a-8c1d-8e5012c11666"
    }, {
      "postalAddress" : {
        "city" : "Dublin",
        "street" : "Church Street",
        "identifier_address" : "fcb73181-a1b0-4748-8ae0-b7b51dd6497f"
      },
      "name" : "Brewery X",
      "geometry" : {
        "type" : "Polygon",
        "coordinates" : [ [ [ 5.971385958, 52.225493476 ], [ 5.972053828, 52.225493476 ], [ 5.972053828, 52.225279886 ], [ 5.971385958, 52.225279886 ], [ 5.971385958, 52.225493476 ] ] ]
      },
      "visitAddress" : {
        "city" : "Dublin",
        "street" : "Church Street",
        "identifier_address" : "fcb73181-a1b0-4748-8ae0-b7b51dd6497f"
      },
      "identifier_brewery" : "d3654375-95fa-46b4-8529-08b0f777bd6b"
    }, {
      "postalAddress" : {
        "city" : "New York",
        "street" : "5th Avenue",
        "identifier_address" : "3fe6c706-54af-4420-89c4-926ff719236a"
      },
      "name" : "Brewery Y",
      "geometry" : {
        "type" : "Polygon",
        "coordinates" : [ [ [ 6.171943939, 51.486993913 ], [ 6.17432574, 51.486993913 ], [ 6.17432574, 51.485644379 ], [ 6.171943939, 51.485644379 ], [ 6.171943939, 51.486993913 ] ] ]
      },
      "identifier_brewery" : "6e8f89da-9676-4cb9-801b-aeb6e2a59ac9"
    }, {
      "postalAddress" : {
        "city" : "Sydney",
        "street" : "Caste Hill Rd",
        "identifier_address" : "6fe507d8-a09b-40e7-a33b-df285935c651"
      },
      "name" : "Brewery Z",
      "geometry" : {
        "type" : "Polygon",
        "coordinates" : [ [ [ 6.815344124, 52.207653734 ], [ 6.818358927, 52.207653734 ], [ 6.818358927, 52.206457133 ], [ 6.815344124, 52.206457133 ], [ 6.815344124, 52.207653734 ] ] ]
      },
      "identifier_brewery" : "28649f76-ddcf-417a-8c1d-8e5012c31959"
    } ]
  }
}